[
    {
       "name": "Southern Twist",
       "lat": 30.525329,
       "lng": -87.885121,
       "category": "Hobby and Craft",
       "address": "84 Plantation Point",
       "city": "Fairhope",
       "state": "Alabama",
       "postal": "36532",
       "country": "US",
       "phone": "251-517-7404",
       "email": "southerntwistyarns@gmail.com",
       "web": "www.southerntwistyarns.com",
       "hours": "",
       "featured": ""
    },
    {
       "name": "The Yarn Boutique of Decatur",
       "lat": 34.601904,
       "lng": -86.984943,
       "category": "Hobby and Craft",
       "address": "302 2nd Ave SE, Ste 1",
       "city": "Decatur",
       "state": "Alabama",
       "postal": "35601",
       "country": "US",
       "phone": "256-580-5510",
       "email": "yarnboutiqueofdecatur@gmail.com",
       "web": "yarn-boutique-of-decatur.business.site",
       "hours": "",
       "featured": ""
    },
    {
       "name": "Fiber Creek",
       "lat": 34.562687,
       "lng": -112.484211,
       "category": "Hobby and Craft",
       "address": "1046 Willow Creek Rd., Ste 123",
       "city": "Prescott",
       "state": "Arizona",
       "postal": "86301",
       "country": "US",
       "phone": "928-717-1774",
       "email": "info@fibercreekprescott.com",
       "web": "www.fibercreekprescott.com",
       "hours": "",
       "featured": ""
    },
    {
       "name": "Isabelle's Parlour",
       "lat": 33.946575,
       "lng": -112.703994,
       "category": "Hobby and Craft",
       "address": "A Yarn Boutique51020 Hwy 60/89",
       "city": "Wickenburg",
       "state": "Arizona",
       "postal": "85390",
       "country": "US",
       "phone": "(928) 684-4937",
       "email": "yarn@wickenburg.com",
       "web": "isabellesparlour.com",
       "hours": "",
       "featured": ""
    },
    {
       "name": "Babetta's Yarn and Gifts",
       "lat": 38.644001,
       "lng": -121.290744,
       "category": "Hobby and Craft",
       "address": "4400 San Juan Ave",
       "city": "Fair Oaks",
       "state": "California",
       "postal": "95628",
       "country": "US",
       "phone": "916-965-6043",
       "email": "info@babettasyarnandgifts.com",
       "web": "www.babettasyarnandgifts.com",
       "hours": "",
       "featured": ""
    },
    {
       "name": "Knit House Inc",
       "lat": 37.873450,
       "lng": -122.456735,
       "category": "Hobby and Craft",
       "address": "32 Main St",
       "city": "Tiburon",
       "state": "California",
       "postal": "94920",
       "country": "US",
       "phone": "415-937-5246",
       "email": "info@knithouseonmain.com",
       "web": "www.knithouseonmain.com",
       "hours": "",
       "featured": ""
    },
    {
       "name": "Maisieblue",
       "lat": 38.137319,
       "lng": -120.459732,
       "category": "Hobby and Craft",
       "address": "66 Scott St",
       "city": "Murphys",
       "state": "California",
       "postal": "95247",
       "country": "US",
       "phone": "209-728-8261",
       "email": "maisieblue@gmail.com",
       "web": "www.maisieblue.com",
       "hours": "",
       "featured": ""
    },
    {
       "name": "Piedmont Yarn and Apparel",
       "lat": 37.827636,
       "lng": -122.251467,
       "category": "Hobby and Craft",
       "address": "4171 Piedmont Avenue, Suite 102",
       "city": "Oakland",
       "state": "California",
       "postal": "94611",
       "country": "US",
       "phone": "510-595-9595",
       "email": "info@piedmontyarn.com",
       "web": "piedmontyarn.com",
       "hours": "",
       "featured": ""
    },
    {
       "name": "Yarning for You",
       "lat": 33.134017,
       "lng": -117.188687,
       "category": "Hobby and Craft",
       "address": "1001 San Marcos Blvd, Ste 180",
       "city": "San Marcos",
       "state": "California",
       "postal": "92078",
       "country": "US",
       "phone": "760-744-5648",
       "email": "marketing@yarningforyou.com",
       "web": "yarningforyou.com",
       "hours": "",
       "featured": ""
    },
    {
       "name": "Ewe and Me a Yarn Boutique",
       "lat": 38.896307,
       "lng": -104.842054,
       "category": "Hobby and Craft",
       "address": "1025 West Garden of the Gods Rd, Ste F",
       "city": "Colorado Springs",
       "state": "Colorado",
       "postal": "80907",
       "country": "US",
       "phone": "719-203-5240",
       "email": "info@eweandmeayarnboutique.com",
       "web": "eweandmeayarnboutique.com",
       "hours": "",
       "featured": ""
    },
    {
       "name": "Woolly Works",
       "lat": 39.006388,
       "lng": -104.584726,
       "category": "Hobby and Craft",
       "address": "12285 Oregon Wagon Trail",
       "city": "Black Forest",
       "state": "Colorado",
       "postal": "80903",
       "country": "US",
       "phone": "719-822-6062",
       "email": "wwk327@hotmail.com",
       "web": "www.woollywotksknitshop.com",
       "hours1": "",
       "featured": ""
    },
    {
       "name": "A Stitching Witch",
       "lat": 28.465409,
       "lng": -82.619819,
       "category": "Hobby and Craft",
       "address": "2260 Commercial Way",
       "city": "Spring Hill",
       "state": "Florida",
       "postal": "34606",
       "country": "US",
       "phone": "352-293-3601",
       "email": "aswshfl@gmail.com",
       "web": "astitchingwitch.com",
       "hours1": "",
       "hours2": "",
       "@hours3": "",
       "@featured": ""
    },
    {
       "name": "Hooked on Ewe Yarn Shop",
       "lat": 26.497598,
       "lng": -81.971914,
       "category": "Hobby and Craft",
       "address": "16876 McGregor Blvd, Ste 103A",
       "city": "Fort Meyers",
       "state": "Florida",
       "postal": "33908",
       "country": "US",
       "phone": "239-247-1080",
       "email": "hookedonewellc@gmail.com",
       "web": "www.hookedoneweyarn.com",
       "hours": "",
       "featured": ""
    },
    {
       "name": "Le Mouton Rouge Knittery",
       "lat": 40.489227,
       "lng": -88.970898,
       "category": "Hobby and Craft",
       "address": "1206 Towanda Plaza, Ste 1",
       "city": "Bloomington",
       "state": "Illinois",
       "postal": "61701",
       "country": "US",
       "phone": "309-319-7692",
       "email": "kelly@lmrknittery.com",
       "web": "www.lmrknittery.com",
       "hours1": "",
       "featured": ""
    },
    {
       "name": "Wool and Company",
       "lat": 41.913579,
       "lng": -88.314728,
       "category": "Hobby and Craft",
       "address": "107 A West Main St",
       "city": "Saint Charles",
       "state": "Illinois",
       "postal": "60174",
       "country": "US",
       "phone": "630-444-0480",
       "email": "team@woolandcompany.com",
       "web": "www.woolandcompany.com",
       "hours1": "",
       "featured": ""
    },
    {
       "name": "Another Yarn",
       "lat": 42.482093,
       "lng": -71.187828,
       "category": "Hobby and Craft",
       "address": "15 Cambridge Street",
       "city": "Burlington",
       "state": "Massachusetts",
       "postal": "01803",
       "country": "US",
       "phone": "781-570-2134",
       "email": "info@anotheryarn.com",
       "web": "www.anotheryarn.com",
       "hours1": "",
       "featured": ""
    },
    {
       "name": "Arnie's Arts and Crafts",
       "lat": 44.298293,
       "lng": -84.713994,
       "category": "Hobby and Craft",
       "address": "3741 W. Houghton Lake Dr",
       "city": "Houghton Lake",
       "state": "Michigan",
       "postal": "48629",
       "country": "US",
       "phone": "989-366-8794",
       "email": "info@arnies.com",
       "web": "arnies.com",
       "hours1": "",
       "featured": ""
    },
    {
       "name": "Friends and Fiberworks",
       "lat": 35.547604,
       "lng": -82.658245,
       "category": "Hobby and Craft",
       "address": "19 Westridge Market Place",
       "city": "Chandler",
       "state": "North Carolina",
       "postal": "28715",
       "country": "US",
       "phone": "828-663-2500",
       "email": "friendsandfiberworks@gmail.com",
       "web": "www.friendsandfiberworks.com",
       "hours1": "",
       "featured": ""
    },
    {
       "name": "Sun Dragon",
       "lat": 35.233418,
       "lng": -82.734489,
       "category": "Hobby and Craft",
       "address": "35 S. Broad St",
       "city": "Brevard",
       "state": "North Carolina",
       "postal": "28712",
       "country": "US",
       "phone": "828-877-3550",
       "email": "rebecca@sundragonartandfiber.com",
       "web": "www.sundragonartandfiber.com",
       "hours1": "",
       "featured": ""
    },
    {
       "name": "Bountiful Ewe",
       "lat": 46.860653,
       "lng": -96.818787,
       "category": "Hobby and Craft",
       "address": "1326 25th Street South",
       "city": "Fargo",
       "state": "North Dakota",
       "postal": "58103",
       "country": "US",
       "phone": "701-491-8722",
       "email": "bountifulewe@gmail.com",
       "web": "",
       "hours1": "",
       "featured": ""
    },
    {
       "name": "Fiber Basket",
       "lat": 48.221508,
       "lng": -101.295331,
       "category": "Hobby and Craft",
       "address": "1407 S Broadway, Ste E",
       "city": "Minot",
       "state": "North Dakota",
       "postal": "58701",
       "country": "US",
       "phone": "701-852-9292",
       "email": "fiberbasket@yahoo.com",
       "web": "www.fiberbasket.com",
       "hours1": "",
       "featured": ""
    },
    {
       "name": "Knitty Gritty Yarn Shop",
       "lat": 42.876071,
       "lng": -71.949847,
       "category": "Hobby and Craft",
       "address": "16 Depot St",
       "city": "Peterborough",
       "state": "New Hampshire",
       "postal": "03458",
       "country": "US",
       "phone": "603-924-2028",
       "email": "knittygrittyyarns@gmail.com",
       "web": "www.knittygrittyyarns.com",
       "hours1": "",
       "featured": ""
    },
    {
       "name": "Jimmy Beans",
       "lat": 39.508695,
       "lng": -119.761541,
       "category": "Hobby and Craft",
       "address": "4850 Joule St, Ste A1",
       "city": "Reno",
       "state": "Nevada",
       "postal": "89502",
       "country": "US",
       "phone": "877-529-5648",
       "email": "support@jimmybeanswool.com",
       "web": "www.jimmybeanswool.com",
       "hours1": "",
       "featured": ""
    },
    {
       "name": "Annie  and Company",
       "lat": 40.781831,
       "lng": -73.949246,
       "category": "Hobby and Craft",
       "address": "1763 2nd Ave",
       "city": "New Yory",
       "state": "New York",
       "postal": "10128",
       "country": "US",
       "phone": "(212)3607266 or (212)2892944",
       "email": "annie@annieandco.com",
       "web": "www.annieandco.com",
       "hours1": "",
       "featured": ""
    },
    {
       "name": "The Endless Skein",
       "lat": 41.418970,
       "lng": -73.957129,
       "category": "Hobby and Craft",
       "address": "126 Main ST",
       "city": "Cold Spring",
       "state": "New York",
       "postal": "10516",
       "country": "US",
       "phone": "845-809-5500",
       "email": "info@theendlessskein.com",
       "web": "www.theendlessskein.com",
       "hours1": "",
       "featured": ""
    },
    {
       "name": "Knit",
       "lat": 40.800870,
       "lng": -73.649315,
       "category": "Hobby and Craft",
       "address": "1353 Old Northern Blvd",
       "city": "Roslyn",
       "state": "New York",
       "postal": "11576",
       "country": "US",
       "phone": "516-625-5648",
       "email": "knitlongisland@gmail.com",
       "web": "www.knitlongisland.com",
       "hours1": "",
       "featured": ""
    },
    {
       "name": "Yarn Cupboard",
       "lat": 42.992304,
       "lng": -76.072004,
       "category": "Hobby and Craft",
       "address": "6487 E Seneca Tpke",
       "city": "Jamesville",
       "state": "New York",
       "postal": "13078",
       "country": "US",
       "phone": "315-399-5148",
       "email": "info@yarncupboard.com",
       "web": "www.yarncupboard.com",
       "hours1": "",
       "featured": ""
    },
    {
       "name": "Main Street Yarns",
       "lat": 39.360678,
       "lng": -84.310351,
       "category": "Hobby and Craft",
       "address": "126 West Main St",
       "city": "Mason",
       "state": "Ohio",
       "postal": "45040",
       "country": "US",
       "phone": "513-204-0078",
       "email": "mainstreetyarnsmason@gmail.com",
       "web": "www.mainstreetyarnsmason.com",
       "hours1": "",
       "featured": ""
    },
    {
       "name": "Silk Road Textiles",
       "lat": 39.202280,
       "lng": -84.547489,
       "category": "Hobby and Craft",
       "address": "6106 Hamilton Ave",
       "city": "Cincinnati",
       "state": "Ohio",
       "postal": "45224",
       "country": "US",
       "phone": "513-541-3700",
       "email": "silkroadcincy@gmail.com",
       "web": "www.silkroadcincinnati.com",
       "hours1": "",
       "featured": ""
    },
    {
       "name": "Get Stitchin' LLC",
       "lat": 36.087652,
       "lng": -95.902737,
       "category": "Hobby and Craft",
       "address": "6562 E 51st St",
       "city": "Tulsa",
       "state": "Oklahoma",
       "postal": "74145",
       "country": "US",
       "phone": "9184811055",
       "email": "info@getstitchin.com",
       "web": "getstitchin.com",
       "hours": "",
       "featured": ""
    },
    {
       "name": "Grandma's Spinning Wheel",
       "lat": 32.245736,
       "lng": -110.852423,
       "category": "Hobby and Craft",
       "address": "6544 E Tanque Verde Rd",
       "city": "Tucson",
       "state": "Oklahoma",
       "postal": "85715",
       "country": "US",
       "phone": "5202903738",
       "email": "spinningramma@aol.com",
       "web": "grandmasspinningwheel.com",
       "hours1": "",
       "featured": ""
    },
    {
       "name": "Loops",
       "lat": 36.076246,
       "lng": -95.923817,
       "category": "Hobby and Craft",
       "address": "6034 S Yale Ave",
       "city": "Tulsa",
       "state": "Oklahoma",
       "postal": "74135",
       "country": "US",
       "phone": "5445667765",
       "email": "store@loopslove.com",
       "web": "loopslove.com",
       "hours": "",
       "featured": ""
    },
    {
       "name": "Yarntopia LLC",
       "lat": 35.383036,
       "lng": -97.530643,
       "category": "Hobby and Craft",
       "address": "8407 S Western",
       "city": "Oklahoma City",
       "state": "Oklahoma",
       "postal": "73139",
       "country": "US",
       "phone": "405-601-9995",
       "email": "yarnatopia@gmail.com",
       "web": "www.yarntopia.com",
       "hours1": "",
       "featured": ""
    },
    {
       "name": "Entwined",
       "lat": 45.210051,
       "lng": -123.194745,
       "category": "Hobby and Craft",
       "address": "448 NE 3rd St",
       "city": "McMinnville",
       "state": "Oregon",
       "postal": "97128",
       "country": "US",
       "phone": "503-472-0336",
       "email": "info@entwinedyarns.com",
       "web": "www.entwinedyarns.com",
       "hours1": "",
       "featured": ""
    },
    {
       "name": "Ewe and I",
       "lat": 46.666240,
       "lng": -122.970813,
       "category": "Hobby and Craft",
       "address": "566 N Market Rd",
       "city": "Chehalis",
       "state": "Oregon",
       "postal": "98532",
       "country": "US",
       "phone": "360-345-1506",
       "email": "eweandiyarns@gmail.com",
       "web": "www.eweandiyarns.com",
       "hours1": "",
       "featured": ""
    },
    {
       "name": "Laurel Hill",
       "lat": 44.045476,
       "lng": -123.097055,
       "category": "Hobby and Craft",
       "address": "2243 Olive Street",
       "city": "Eugene",
       "state": "Oregon",
       "postal": "97405",
       "country": "US",
       "phone": "541-868-2098",
       "email": "sales@laurelhillonline.com",
       "web": "www.laurelhillonline.com",
       "hours1": "",
       "featured": ""
    },
    {
       "name": "Soft Horizons Fibre",
       "lat": 44.045481,
       "lng": -123.086463,
       "category": "Hobby and Craft",
       "address": "412 E 13th St",
       "city": "Eugene",
       "state": "Oregon",
       "postal": "97401",
       "country": "US",
       "phone": "800-269-6806",
       "email": "softhorizonsfibre@gmail.com",
       "web": "www.softhorizonsfibre.com",
       "hours1": "",
       "featured": ""
    },
    {
       "name": "McWalker Yarns",
       "lat": 40.479423,
       "lng": -79.972293,
       "category": "Hobby and Craft",
       "address": "303 Grant Ave",
       "city": "Millvale",
       "state": "Pennsylvania",
       "postal": "15209",
       "country": "US",
       "phone": "412-821-5000",
       "email": "yarns@mcwalker.us",
       "web": "www.mcwalker.us",
       "hours1": "",
       "featured": ""
    },
    {
       "name": "Punto Reves",
       "lat": 18.399752,
       "lng": -66.105717,
       "category": "Hobby and Craft",
       "address": "Austral #579-Urb, Altamira 00920",
       "city": "Guaynabo",
       "state": "Puerto Rico",
       "postal": "00920",
       "country": "US",
       "phone": "787-594-4801",
       "email": "puntoreves@gmail.com",
       "web": "www.puntoreves.com",
       "hours1": "",
       "featured": ""
    },
    {
       "name": "Knit-N-Purl",
       "lat": 33.724515,
       "lng": -78.846514,
       "category": "Hobby and Craft",
       "address": "4811 N Kings Hwy",
       "city": "Myrtle Beach",
       "state": "South Carolina",
       "postal": "29577",
       "country": "US",
       "phone": "843-945-9484",
       "email": "yarn@knitnpurl.com",
       "web": "www.knitnourl.com",
       "hours1": "",
       "featured": ""
    },
    {
       "name": "Rows and Roses",
       "lat": 34.686029,
       "lng": -82.954126,
       "category": "Hobby and Craft",
       "address": "105 E North 1st St",
       "city": "Seneca",
       "state": "South Carolina",
       "postal": "29678",
       "country": "US",
       "phone": "864-888-7554",
       "email": "",
       "web": "www.rowsandroses.com",
       "hours1": "",
       "featured": ""
    },
    {
       "name": "Yarn and Y'all",
       "lat": 34.874564,
       "lng": -82.326610,
       "category": "Hobby and Craft",
       "address": "3795 E. North St #9",
       "city": "Greenville",
       "state": "South Carolina",
       "postal": "29615",
       "country": "US",
       "phone": "864-239-2222",
       "email": "info@yarnandyall.com",
       "web": "www.yarnandyall.com",
       "hours1": "",
       "featured": ""
    },
    {
       "name": "Ewe and Company",
       "lat": 36.101373,
       "lng": -87.115047,
       "category": "Hobby and Craft",
       "address": "407 N Main St",
       "city": "Kingston Springs",
       "state": "Tennessee",
       "postal": "37082",
       "country": "US",
       "phone": "615-972-0110",
       "email": "eweandcompany@yahoo.com",
       "web": "www.eweandcompany.com",
       "hours1": "",
       "featured": ""
    },
    {
       "name": "Loopville",
       "lat": 35.938317,
       "lng": -83.989214,
       "category": "Hobby and Craft",
       "address": "5204 Kingston Pike, Ste 1",
       "city": "Knoxville",
       "state": "Tennessee",
       "postal": "37919",
       "country": "US",
       "phone": "865-584-9772",
       "email": "jinka@loopvilleyarn.com",
       "web": "www.loopvilleyarn.com",
       "hours1": "",
       "featured": ""
    },
    {
       "name": "Yarn Patch",
       "lat": 35.978764,
       "lng": -84.968395,
       "category": "Hobby and Craft",
       "address": "1771 Peavine Rd, #102",
       "city": "Crossville",
       "state": "Tennessee",
       "postal": "38571",
       "country": "US",
       "phone": "931-707-1255",
       "email": "yarnpatch@gmail.com",
       "web": "www.yarnpatch.com",
       "hours1": "",
       "featured": ""
    },
    {
       "name": "Yarntiques",
       "lat": 36.325898,
       "lng": -82.351621,
       "category": "Hobby and Craft",
       "address": "410 E Watauga Ave",
       "city": "Johnson City",
       "state": "Tennessee",
       "postal": "37601",
       "country": "US",
       "phone": "423-232-2933",
       "email": "candice@yarntiques.com",
       "web": "www.yarntiques.com",
       "hours1": "",
       "featured": ""
    },
    {
       "name": "DMH Fiber and Yarn",
       "lat": 32.953280,
       "lng": -96.770170,
       "category": "Hobby and Craft",
       "address": "7989 Belt Line",
       "city": "Dallas",
       "state": "Texas",
       "postal": "75248",
       "country": "US",
       "phone": "469-828-1187",
       "email": "dmhfiberyarn@yahoo.com",
       "web": "dmhfiberandyarn.com",
       "hours1": "",
       "featured": ""
    },
    {
       "name": "The Modern Skein",
       "lat": 30.390839,
       "lng": -95.696055,
       "category": "Hobby and Craft",
       "address": "2008 McCowan St, Ste 100-110",
       "city": "Montgomery",
       "state": "Texas",
       "postal": "77356",
       "country": "US",
       "phone": "936-436-3615",
       "email": "themodernskein@gmail.com",
       "web": "www.themodernskein.com",
       "hours1": "",
       "featured": ""
    },
    {
       "name": "The Tinsmith's Wife",
       "lat": 29.966029,
       "lng": -98.908622,
       "category": "Hobby and Craft",
       "address": "405 7th St",
       "city": "Comfort",
       "state": "Texas",
       "postal": "78013",
       "country": "US",
       "phone": "830-995-5539",
       "email": "thinsmithswife@gmail.com",
       "web": "www.tinsmithswife.com",
       "hours1": "",
       "featured": ""
    },
    {
       "name": "Center Of the Yarniverse",
       "lat": 37.759208,
       "lng": -77.481467,
       "category": "Hobby and Craft",
       "address": "100 N Railroad",
       "city": "Ashland",
       "state": "Virginia",
       "postal": "23059",
       "country": "US",
       "phone": "804-362-7800",
       "email": "centeroftheyarniverse@gmail.com",
       "web": "www.centeroftheyarniverse.com",
       "hours1": "",
       "featured": ""
    },
    {
       "name": "Knit 2gether",
       "lat": 47.647004,
       "lng": -122.693782,
       "category": "Hobby and Craft",
       "address": "9234 Bay Shore Dr NW",
       "city": "Silverdale",
       "state": "Washington",
       "postal": "98383",
       "country": "US",
       "phone": "360-979-0120",
       "email": "knit2gether@outlook.com",
       "web": "knit2getheryarns.com",
       "hours": "",
       "featured": ""
    },
    {
       "name": "Sea Bre's Yarn",
       "lat": 48.221468,
       "lng": -122.687110,
       "category": "Hobby and Craft",
       "address": "12  NW Front St",
       "city": "Coupville",
       "state": "Washington",
       "postal": "98239",
       "country": "US",
       "phone": "360-605-0720",
       "email": "seabresyarn@gmail.com",
       "web": "",
       "hours": "",
       "featured": ""
    },
    {
       "name": "Serial Knitters",
       "lat": 47.680173,
       "lng": -122.178865,
       "category": "Hobby and Craft",
       "address": "6513 132nd Ave NE",
       "city": "Kirkland",
       "state": "Washington",
       "postal": "98033",
       "country": "US",
       "phone": "425-242-0086",
       "email": "serialknitter@live.com",
       "web": "serialknitters.com",
       "hours": "",
       "featured": ""
    },
    {
       "name": "Wildfibers",
       "lat": 48.418095,
       "lng": -122.338444,
       "category": "Hobby and Craft",
       "address": "706 S First St",
       "city": "Mt Vernon",
       "state": "Washington",
       "postal": "98273",
       "country": "US",
       "phone": "360-336-5202",
       "email": "sparker@wildfibers.net",
       "web": "wildfibers.net",
       "hours1": "",
       "featured": ""
    },
    {
       "name": "Black Sheep Yarn Boutique",
       "lat": 47.039216,
       "lng": -122.934545,
       "category": "Hobby and Craft",
       "address": "2615 Capital Mall Dr, Ste 3B",
       "city": "Olympia",
       "state": "Washington",
       "postal": "98502",
       "country": "US",
       "phone": "360-350-0470",
       "email": "michelle@blacksheepyarn.comcastbiz.net",
       "web": "theblacksheepyarnboutique.com",
       "hours1": "",
       "featured": ""
    },
    {
       "name": "Knit Whit's Yarn",
       "lat": 45.061089,
       "lng": -87.124364,
       "category": "Hobby and Craft",
       "address": "8024 Highway 57",
       "city": "Baileys Harbor",
       "state": "Wisconsin",
       "postal": "54202",
       "country": "US",
       "phone": "920-839-9276",
       "email": "knitwhits.doorcounty@gmail.com",
       "web": "www.knitwhitsyarnshop.com",
       "hours1": "",
       "featured": ""
    },
    {
       "name": "Knitting Knook",
       "lat": 43.141836,
       "lng": -87.902676,
       "category": "Hobby and Craft",
       "address": "6858 N Santa Monica Blvd",
       "city": "Fox Point",
       "state": "Wisconsin",
       "postal": "53217",
       "country": "US",
       "phone": "414-540-4080",
       "email": "knittingknook@me.com",
       "web": "www.Knittingknook.com",
       "hours1": "",
       "featured": ""
    },
    {
       "name": "Cowgirl Yarn",
       "lat": 41.312493,
       "lng": -105.595190,
       "category": "Hobby and Craft",
       "address": "119 Ivinson Ave",
       "city": "Laramie",
       "state": "Wyoming",
       "postal": "82070",
       "country": "US",
       "phone": "307-755-9276",
       "email": "howdy@cowgirlyarn.com",
       "web": "www.cowgirlyarn.com",
       "hours1": "",
       "featured": ""
    },
    {
       "name": "Brew Stitched",
       "lat": 48.938122,
       "lng": -119.437409,
       "category": "Hobby and Craft",
       "address": "819 Appleway Ave",
       "city": "Orroville",
       "state": "Washington",
       "postal": "98844",
       "country": "US",
       "phone": "(206)226-2787",
       "email": "sheryl@brewstitched.com",
       "web": "brewstitched.com",
       "hours": "",
       "featured": ""
    },
    {
       "name": "Dilly Dally's",
       "lat": 41.164741,
       "lng": -112.024505,
       "category": "Hobby and Craft",
       "address": "11007 US Hwy 2",
       "city": "Leavenworth",
       "state": "Washington",
       "postal": "98826",
       "country": "US",
       "phone": "509-548-5771",
       "email": "",
       "web": "www.facebook.com/DillyDallys-953723374731280/",
       "hours": "",
       "featured": ""
    },
    {
       "name": "Yarntopia LLC",
       "lat": 35.383010,
       "lng": -97.530643,
       "category": "Hobby and Craft",
       "address": "8407 S Western",
       "city": "Oklahoma City",
       "state": "Oklahoma",
       "postal": "73139",
       "country": "US",
       "phone": "405-601-9995",
       "email": "yarnatopia@gmail.com",
       "web": "yarntopia.com",
       "hours": "",
       "featured": ""
    },
    {
       "name": "Sheared Sheep",
       "lat": 33.626025,
       "lng": -117.906435,
       "category": "Hobby and Craft",
       "address": "1665A Westcliff Dr",
       "city": "Newport Beach",
       "state": "California",
       "postal": "92660",
       "country": "US",
       "phone": "949-722-7977",
       "email": "knit@sheepyarnshop.com",
       "web": "http://shearedsheep.godaddysites.com/",
       "hours1": "",
       "featured": ""
    },
    {
       "name": "Mass Ave Knit Shop",
       "lat": 39.755764,
       "lng": -86.143073,
       "category": "Hobby and Craft",
       "address": "862 Virginia Ave",
       "city": "Indianapolis",
       "state": "Indiana",
       "postal": "46203",
       "country": "US",
       "phone": "317-638-1833",
       "email": "massaveknitshop@ameritech.net",
       "web": "https://massaveknitshoponline.com/",
       "hours1": "",
       "featured": ""
    },
    {
       "name": "Fun With Fiber",
       "lat": 42.500505,
       "lng": -83.376910,
       "category": "Hobby and Craft",
       "address": "33304 W 12 Mile Rd",
       "city": "Farmington Hills",
       "state": "Michigan",
       "postal": "48334",
       "country": "US",
       "phone": "248-553-4237",
       "email": "sales@funwithfiber.com",
       "web": "https://funwithfiber.com/",
       "hours1": "",
       "featured": ""
    },
    {
       "name": "The Warm Fuzzy",
       "lat": 44.881620,
       "lng": -85.273941,
       "category": "Hobby and Craft",
       "address": "9046 Helena Rd",
       "city": "Alden",
       "state": "Michigan",
       "postal": "49612",
       "country": "US",
       "phone": "231-944-0757",
       "email": "info@thewarmfuzzyalden.com",
       "web": "thewarmfuzzyalden.com",
       "hours1": "",
       "featured": ""
    },
    {
       "name": "Yarntopia LLC",
       "lat": 35.383010,
       "lng": -97.530643,
       "category": "Hobby and Craft",
       "address": "8407 S Western",
       "city": "Oklahoma City",
       "state": "Oklahoma",
       "postal": "73139",
       "country": "US",
       "phone": "405-601-9995",
       "email": "yarnatopia@gmail.com",
       "web": "www.yarntopia.com",
       "hours": "",
       "featured": ""
    },
    {
       "name": "Knitting From the Heart",
       "lat": 44.924218,
       "lng": -92.933177,
       "category": "Hobby and Craft",
       "address": "1785 Radio Dr, #D",
       "city": "Woodbury",
       "state": "Minnesota",
       "postal": "55125",
       "country": "US",
       "phone": "651-702-0880",
       "email": "heartknits@comcast.net",
       "web": "heartknits.com",
       "hours1": "",
       "featured": ""
    },
    {
       "name": "StevenBe",
       "lat": 44.939854,
       "lng": -93.262759,
       "category": "Hobby and Craft",
       "address": "3448 Chicago Ave",
       "city": "Minneapolis",
       "state": "Minnesota",
       "postal": "55407",
       "country": "US",
       "phone": "612-259-7525",
       "email": "info@stevenbe.com",
       "web": "stevenbe.com",
       "hours1": "",
       "featured": ""
    },
    {
       "name": "Yarn Harbor",
       "lat": 46.829327,
       "lng": -92.029681,
       "category": "Hobby and Craft",
       "address": "4629 E Superior St",
       "city": "Duluth",
       "state": "Minnesota",
       "postal": "55804",
       "country": "US",
       "phone": "218-724-6432",
       "email": "wool@yarnharborduluth.com",
       "web": "www.yarnharborduluth.com",
       "hours1": "",
       "featured": ""
    },
    {
       "name": "614 Knit Studio",
       "lat": 40.055334,
       "lng": -83.000162,
       "category": "Hobby and Craft",
       "address": "4436 Indianola Ave",
       "city": "Columbus",
       "state": "Ohio",
       "postal": "43214",
       "country": "US",
       "phone": "614-670-5629",
       "email": "614knitstudio@gmail.com",
       "web": "www.614knitstudio.com",
       "hours1": "",
       "featured": ""
    },
    {
       "name": "Pindrop shop",
       "lat": 40.391388,
       "lng": -81.346157,
       "category": "Hobby and Craft",
       "address": "107 E 3rd St",
       "city": "Uhrichsville",
       "state": "Ohio",
       "postal": "44683",
       "country": "US",
       "phone": "740-224-0700",
       "email": "jz@shoppindrop.com",
       "web": "www.shoppindrop.com",
       "hours1": "",
       "featured": ""
    },
    {
       "name": "Yarntopia LLC",
       "lat": 35.383010,
       "lng": -97.530643,
       "category": "Hobby and Craft",
       "address": "8407 S Western",
       "city": "Oklahoma City",
       "state": "Oklahoma",
       "postal": "73139",
       "country": "US",
       "phone": "405-601-9995",
       "email": "yarnatopia@gmail.com",
       "web": "yarntopia.com",
       "hours": "",
       "featured": ""
    },
    {
       "name": "Acorn Street Shop",
       "lat": 47.668813,
       "lng": -122.296382,
       "category": "Hobby and Craft",
       "address": "2818 NE 55th St",
       "city": "Seattle",
       "state": "Washington",
       "postal": "98105",
       "country": "US",
       "phone": "206-525-1726",
       "email": "shop@acornstreet.com",
       "web": "www.acornstreet.com",
       "hours1": "",
       "featured": ""
    },
    {
       "name": "The Fiber Gallery",
       "lat": 47.689075,
       "lng": -122.355069,
       "category": "Hobby and Craft",
       "address": "8212 Greenwood Ave N",
       "city": "Seattle",
       "state": "Washington",
       "postal": "98103",
       "country": "US",
       "phone": "206-706-4197",
       "email": "info@fibergallery.com",
       "web": "www.fibergallery.com",
       "hours1": "",
       "featured": ""
    },
    {
       "name": "Rainy Day Yarns, LLC",
       "lat": 47.329051,
       "lng": -122.582059,
       "category": "Hobby and Craft",
       "address": "7716 Pioneer Way, Suite D",
       "city": "Gig Harbor",
       "state": "Washington",
       "postal": "98335",
       "country": "US",
       "phone": "253-514-6890",
       "email": "rainydayyarns@gmail.com",
       "web": "www.rainydayyarns.com",
       "hours1": "",
       "featured": ""
    },
    {
       "name": "Knot Just Yarn LLC",
       "lat": 39.693857,
       "lng": -104.789425,
       "category": "Hobby and Craft",
       "address": "1250 S. Buckley, Unit H",
       "city": "Buckley",
       "state": "Colorado",
       "postal": "80017",
       "country": "US",
       "phone": "303-990-3310",
       "email": "sheila@knotjustyarn.shop",
       "web": "www.knotjustyarnllc.com",
       "hours1": "",
       "featured": ""
    },
    {
       "name": "Nancy O",
       "lat": 41.292843,
       "lng": -73.494138,
       "category": "Hobby and Craft",
       "address": "103 Danbury Road",
       "city": "Ridgefield",
       "state": "Connecticut",
       "postal": "06877",
       "country": "US",
       "phone": "203-431-2266",
       "email": "info@shopnancyo.com",
       "web": "www.shopnancyo.com",
       "hours1": "",
       "featured": ""
    },
    {
       "name": "She Sells Yarn and More",
       "lat": 29.268531,
       "lng": -81.054792,
       "category": "Hobby and Craft",
       "address": "600 S Yonge St, #16a",
       "city": "Ormond Beach",
       "state": "Florida",
       "postal": "32174",
       "country": "US",
       "phone": "386-238-9109",
       "email": "info@shesellsyarn.com",
       "web": "www.shesellsyarn.com",
       "hours1": "",
       "featured": ""
    },
    {
       "name": "Yarntopia LLC",
       "lat": 35.383010,
       "lng": -97.530643,
       "category": "Hobby and Craft",
       "address": "8407 S Western",
       "city": "Oklahoma City",
       "state": "Oklahoma",
       "postal": "73139",
       "country": "US",
       "phone": "405-601-9995",
       "email": "yarnatopia@gmail.com",
       "web": "yarntopia.com",
       "hours": "",
       "featured": ""
    },
    {
       "name": "Elgin Knit Works",
       "lat": 42.037780,
       "lng": -88.284245,
       "category": "Hobby and Craft",
       "address": "8 Douglas Ave",
       "city": "Elgin",
       "state": "Illinois",
       "postal": "60120",
       "country": "US",
       "phone": "847-627-4700",
       "email": "shop@elginknitworks.com",
       "web": "www.elginknitworks.com",
       "hours1": "",
       "featured": ""
    },
    {
       "name": "Lucky Cat Yarn",
       "lat": 42.459496,
       "lng": -71.070693,
       "category": "Hobby and Craft",
       "address": "167 West Emerson Street",
       "city": "Melrose",
       "state": "Massachusetts",
       "postal": "02176",
       "country": "US",
       "phone": "781-590-4940",
       "email": "melroseknitter@gmail.com",
       "web": "www.luckycatyarns.com",
       "hours1": "",
       "featured": ""
    },
    {
       "name": "Knits and Pieces",
       "lat": 38.994849,
       "lng": -76.532471,
       "category": "Hobby and Craft",
       "address": "626 Admiral Dr, Suite J",
       "city": "Annapolis",
       "state": "Maryland",
       "postal": "21401",
       "country": "US",
       "phone": "410-216-2897",
       "email": "knitsandpiecesclasses@gmail.com",
       "web": "www.knitsandpiecesofannapolis.com",
       "hours1": "",
       "featured": ""
    },
    {
       "name": "Weaving Department",
       "lat": 38.776880,
       "lng": -90.336778,
       "category": "Hobby and Craft",
       "address": "180 Dunn Rd",
       "city": "Florissant",
       "state": "Missouri",
       "postal": "63031",
       "country": "US",
       "phone": "314-921-7800",
       "email": "nancy.quade@att.net",
       "web": "weavingdept.com",
       "hours1": "",
       "featured": ""
    },
    {
       "name": "Stix Yarn Co",
       "lat": 45.680792,
       "lng": -111.048478,
       "category": "Hobby and Craft",
       "address": "821 W Mendenhall St",
       "city": "Bozeman",
       "state": "Montana",
       "postal": "59715",
       "country": "US",
       "phone": "406-556-5786",
       "email": "contact@stixyarn.com",
       "web": "stixyarn.com",
       "hours1": "",
       "featured": ""
    },
    {
       "name": "Twisted Knitter",
       "lat": 36.097653,
       "lng": -79.269557,
       "category": "Hobby and Craft",
       "address": "109 N 3rd St",
       "city": "Mebane",
       "state": "North Carolina",
       "postal": "27302",
       "country": "US",
       "phone": "919-563-2468",
       "email": "kim@thetwistedknitter.com",
       "web": "thetwistedknitteryarnshop.com",
       "hours1": "",
       "featured": ""
    },
    {
       "name": "Coastal Yarns",
       "lat": 45.899504,
       "lng": -123.960765,
       "category": "Hobby and Craft",
       "address": "255 N Hemlock St",
       "city": "Cannon Beach",
       "state": "Oregon",
       "postal": "97110",
       "country": "US",
       "phone": "503-436-1128",
       "email": "sherry@coastalyarns.com",
       "web": "www.coastalyarns.com",
       "hours1": "",
       "featured": ""
    },
    {
       "name": "Yarnz 4 Ewe",
       "lat": 42.212248,
       "lng": -121.756362,
       "category": "Hobby and Craft",
       "address": "2617 Pershing Way",
       "city": "Klamath Falls",
       "state": "Oregon",
       "postal": "97603",
       "country": "US",
       "phone": "541-851-9051",
       "email": "",
       "web": "https://www.facebook.com/Yarnz-4-Ewe-373825519670305/",
       "hours1": "",
       "featured": ""
    },
    {
       "name": "Lisa's Sew Crafty",
       "lat": 40.974015,
       "lng": -78.521342,
       "category": "Hobby and Craft",
       "address": "100 State St",
       "city": "Curwensville",
       "state": "Pennsylvania",
       "postal": "16833",
       "country": "US",
       "phone": "814-577-0819",
       "email": "sewcrafty13@verizon.net",
       "web": "www.lisassewcrafty.com",
       "hours1": "",
       "featured": ""
    },
    {
       "name": "Quixotic Fibers",
       "lat": 33.655628,
       "lng": -96.906188,
       "category": "Hobby and Craft",
       "address": "116 E Main St, Unit A",
       "city": "Whitesboro",
       "state": "Texas",
       "postal": "76273",
       "country": "US",
       "phone": "903-564-3740",
       "email": "carla@quixoticfibers.com",
       "web": "www.quixoticfibers.us",
       "hours1": "",
       "featured": ""
    },
    {
       "name": "Yarnbow Inc",
       "lat": 30.350626,
       "lng": -97.965258,
       "category": "Hobby and Craft",
       "address": "1310 Ranch Road 620 South",
       "city": "Lakeway",
       "state": "Texas",
       "postal": "78734",
       "country": "US",
       "phone": "512-666-1310",
       "email": "",
       "web": "www.yarnbow.com",
       "hours1": "",
       "featured": ""
    },
    {
       "name": "Knitty Gritty Shop",
       "lat": 43.792397,
       "lng": -88.486911,
       "category": "Hobby and Craft",
       "address": "564 N. Rolling Meadows Dr.",
       "city": "Fond du Lac",
       "state": "Wisconsin",
       "postal": "54937",
       "country": "US",
       "phone": "920-214-2050",
       "email": "knittygrittyshop.wis@gmail.com",
       "web": "knittygrittyshop.com",
       "hours1": "",
       "featured": ""
    },
    {
       "name": "Craftworks",
       "lat": 42.309735,
       "lng": -71.655231,
       "category": "Hobby and Craft",
       "address": "243 West Main",
       "city": "Northborough",
       "state": "Massachusetts",
       "postal": "01532",
       "country": "US",
       "phone": "508-393-9435",
       "email": "",
       "web": "www.craftworkscoop.com/",
       "hours1": "",
       "featured": ""
    },
    {
       "name": "Fengari Fiber Arts",
       "lat": 37.464537,
       "lng": -122.428925,
       "category": "Hobby and Craft",
       "address": "415 Main St",
       "city": "Half Moon Bay",
       "state": "California",
       "postal": "94019",
       "country": "US",
       "phone": "650-726-2550",
       "email": "yarns@fengari.net",
       "web": "www.fengari.net",
       "hours1": "",
       "featured": ""
    },
    {
       "name": "Colorful Yarns",
       "lat": 39.589508,
       "lng": -104.965209,
       "category": "Hobby and Craft",
       "address": "2001 E Easter Ave, Suite 101",
       "city": "Centennial",
       "state": "Colorado",
       "postal": "80122",
       "country": "US",
       "phone": "303-798-2299",
       "email": "colorfulyarnsales@gmail.com",
       "web": "www.colorfulyarns.com",
       "hours1": "",
       "featured": ""
    },
    {
       "name": "Driftwood Yarns",
       "lat": 41.346450,
       "lng": -72.037466,
       "category": "Hobby and Craft",
       "address": "1 Fort Hill Rd",
       "city": "Groton",
       "state": "Connecticut",
       "postal": "06340",
       "country": "US",
       "phone": "860-415-8118",
       "email": "driftwoodyarns@gmail.com",
       "web": "driftwoodyarns.com",
       "hours1": "",
       "featured": ""
    },
    {
       "name": "Ewe and You Fiber Arts",
       "lat": 41.851017,
       "lng": -72.643008,
       "category": "Hobby and Craft",
       "address": "The Carriage House, 261 Broad St",
       "city": "Windsor",
       "state": "Connecticut",
       "postal": "06095",
       "country": "US",
       "phone": "860-990-5230",
       "email": "schustercraft@gmail.com",
       "web": "eweandyoufiberarts.com",
       "hours1": "",
       "featured": ""
    },
    {
       "name": "Star Struck Cat Yarn Studio",
       "lat": 39.618477,
       "lng": -86.161566,
       "category": "Hobby and Craft",
       "address": "3130 Meridian Parke Dr, Suite M",
       "city": "Greenwood",
       "state": "Indiana",
       "postal": "46142",
       "country": "US",
       "phone": "317-889-9665",
       "email": "susan@starstruckcatstudio.com",
       "web": "www.starstruckcatstudio.com",
       "hours1": "",
       "featured": ""
    },
    {
       "name": "Mary Lue's Yarn and Ewe",
       "lat": 44.326242,
       "lng": -93.954057,
       "category": "Hobby and Craft",
       "address": "122 N. Front St.",
       "city": "St Petere",
       "state": "Minnesota",
       "postal": "56082",
       "country": "US",
       "phone": "507-519-1085",
       "email": "maryluesyarn@gmail.com",
       "web": "www.maryluesyarn.com",
       "hours1": "",
       "featured": ""
    },
    {
       "name": "Castaway Yarns",
       "lat": 38.961030,
       "lng": -92.283464,
       "category": "Hobby and Craft",
       "address": "3600 Interstate 70 Dr SE suite E, Woodridge Center",
       "city": "Columbia",
       "state": "Missouri",
       "postal": "65201",
       "country": "US",
       "phone": "573-443-1299",
       "email": "vlspain@castawayyarns.com",
       "web": "www.castawayyarns.com",
       "hours1": "",
       "featured": ""
    },
    {
       "name": "Unwind Fiber Arts",
       "lat": 38.913554,
       "lng": -94.373496,
       "category": "Hobby and Craft",
       "address": "207 SE 3rd St",
       "city": "Lee's Summit",
       "state": "Missouri",
       "postal": "64063",
       "country": "US",
       "phone": "816-927-5676",
       "email": "unwindfiberartsls@gmail.com",
       "web": "www.unwindfiberarts.com",
       "hours1": "",
       "featured": ""
    },
    {
       "name": "Hooked",
       "lat": 39.903443,
       "lng": -75.039381,
       "category": "Hobby and Craft",
       "address": "411 N Haddon Ave",
       "city": "Haddonfield",
       "state": "New Jersey",
       "postal": "08033",
       "country": "US",
       "phone": "856-428-0110",
       "email": "danique@hookednj.com",
       "web": "www.hookednj.com",
       "hours1": "",
       "featured": ""
    },
    {
       "name": "Knitting Nest",
       "lat": 38.960152,
       "lng": -119.890121,
       "category": "Hobby and Craft",
       "address": "472 Needle Peak Rd",
       "city": "Stateline",
       "state": "Nevada",
       "postal": "89449",
       "country": "US",
       "phone": "775-588-4015",
       "email": "knittingnest@yahoo.com",
       "web": "www.tahoeknittingnest.com",
       "hours1": "",
       "featured": ""
    },
    {
       "name": "Common Thread Saratoga",
       "lat": 43.084587,
       "lng": -73.784037,
       "category": "Hobby and Craft",
       "address": "512 Broadway",
       "city": "Saratoga Springs",
       "state": "New York",
       "postal": "12866",
       "country": "US",
       "phone": "518-583-2583",
       "email": "commonthreadsaratoga@gmail.com",
       "web": "commonthreadsaratoga.com",
       "hours1": "",
       "featured": ""
    },
    {
       "name": "Endless Skein",
       "lat": 41.418986,
       "lng": -73.957140,
       "category": "Hobby and Craft",
       "address": "126 Main St",
       "city": "Cold Spring",
       "state": "New York",
       "postal": "10516",
       "country": "US",
       "phone": "845-809-5500",
       "email": "info@theendlessskein.com",
       "web": "theendlessskein.com",
       "hours1": "",
       "featured": ""
    },
    {
       "name": "The Perfect Blend Yarn and Tea Shop",
       "lat": 42.078322,
       "lng": -73.954511,
       "category": "Hobby and Craft",
       "address": "50 Market St",
       "city": "Saugerties",
       "state": "New York",
       "postal": "12432",
       "country": "US",
       "phone": "845-246-2876",
       "email": "perfectblendyarnshop@gmail.com",
       "web": "www.yarnandteashop.com",
       "hours1": "",
       "featured": ""
    },
    {
       "name": "Knit Wit Knits",
       "lat": 40.901007,
       "lng": -80.852054,
       "category": "Hobby and Craft",
       "address": "645 E State St",
       "city": "Salem",
       "state": "Ohio",
       "postal": "44460",
       "country": "US",
       "phone": "330-337-5648",
       "email": "knitwit@raex.com",
       "web": "www.knitwitknits.tripod.com",
       "hours1": "",
       "featured": ""
    },
    {
       "name": "The Web Sters",
       "lat": 42.197110,
       "lng": -122.715749,
       "category": "Hobby and Craft",
       "address": "11 N Main St",
       "city": "Ashland",
       "state": "Oregon",
       "postal": "97520",
       "country": "US",
       "phone": "541-482-9801",
       "email": "info@yarnatwebsters.com",
       "web": "www.yarnatwebsters.com",
       "hours1": "",
       "featured": ""
    },
    {
       "name": "Knittin Pretty",
       "lat": 40.587130,
       "lng": -111.931444,
       "category": "Hobby and Craft",
       "address": "1393 W 9000 S",
       "city": "West Jordan",
       "state": "Utah",
       "postal": "84088",
       "country": "US",
       "phone": "801-676-9933",
       "email": "knittinpretty@hotmail.com",
       "web": "www.knittinpretty.com",
       "hours1": "",
       "featured": ""
    },
    {
       "name": "The Wool Workshop",
       "lat": 37.254639,
       "lng": -79.956019,
       "category": "Hobby and Craft",
       "address": "2130 Colonial Ave SW",
       "city": "Roanoke",
       "state": "Virginia",
       "postal": "24015",
       "country": "US",
       "phone": "540-685-2285",
       "email": "info@thewoolworkshop.com",
       "web": "www.thewoolworkshop.com",
       "hours1": "",
       "featured": ""
    },
    {
       "name": "All Wound Up Yarn Shop",
       "lat": 47.830871,
       "lng": -122.337322,
       "category": "Hobby and Craft",
       "address": "18521 76th Ave W, #109",
       "city": "Edmonds",
       "state": "Washington",
       "postal": "98026",
       "country": "US",
       "phone": "425-245-5104",
       "email": "info@allwoundupyarnshop.com",
       "web": "www.allwoundupyarnshop.com",
       "hours1": "",
       "featured": ""
    },
    {
       "name": "So Much Yarn",
       "lat": 47.609670,
       "lng": -122.340870,
       "category": "Hobby and Craft",
       "address": "1525 1st Ave, #4",
       "city": "Seattle",
       "state": "Washington",
       "postal": "98101",
       "country": "US",
       "phone": "206-443-0727",
       "email": "betty@somuchyarn.com",
       "web": "www.somuchyarn.com",
       "hours1": "",
       "featured": ""
    },
    {
       "name": "Silver Thimble Quilt Shoppe",
       "lat": 44.514913,
       "lng": -87.958611,
       "category": "Hobby and Craft",
       "address": "2475 University Ave, Suite D",
       "city": "Green Bay",
       "state": "Wisconsin",
       "postal": "54302",
       "country": "US",
       "phone": "920-468-1495",
       "email": "silverthimble@tds.net",
       "web": "www.silverthimblequilts.com",
       "hours1": "",
       "featured": ""
    },
    {
       "name": "Arkansas YarnCo",
       "lat": 34.364033,
       "lng": -92.813872,
       "category": "Hobby and Craft",
       "address": "202 S Main St",
       "city": "Malvern",
       "state": "Arkansas",
       "postal": "72104",
       "country": "US",
       "phone": "501-332-4292",
       "email": "arkansasyarnco@gmail.com",
       "web": "www.arkansasyarnco.myshopify.com",
       "hours1": "",
       "featured": ""
    },
    {
       "name": "The Village Yarnery",
       "lat": 37.163447,
       "lng": -93.294314,
       "category": "Hobby and Craft",
       "address": "2776 S Campbell Ave, #C",
       "city": "Springfield",
       "state": "Missouri",
       "postal": "65807",
       "country": "US",
       "phone": "417-882-1662",
       "email": "thevillageyarnery@gmail.com",
       "web": "www.thevillageyarnery.com",
       "hours1": "",
       "featured": ""
    },
    {
       "name": "Cheers To Ewe",
       "lat": 35.406319,
       "lng": -80.862479,
       "category": "Hobby and Craft",
       "address": "9856 Gilead Rd, Suite E105",
       "city": "Huntersville",
       "state": "North Carolina",
       "postal": "28078",
       "country": "US",
       "phone": "704-706-9425",
       "email": "info@cheerstoewe.com",
       "web": "www.cheerstoewe.com",
       "hours1": "",
       "featured": ""
    },
    {
       "name": "Imagiknit",
       "lat": 37.761267,
       "lng": -122.430443,
       "category": "Hobby and Craft",
       "address": "12100 W Center Rd, #602",
       "city": "Omaha",
       "state": "Nebraska",
       "postal": "68144",
       "country": "US",
       "phone": "402-932-9525",
       "email": "info@imagiknityarns.com",
       "web": "www.imagiknityarns.com",
       "hours1": "",
       "featured": ""
    },
    {
       "name": "String Thing Studio",
       "lat": 40.676262,
       "lng": -73.974571,
       "category": "Hobby and Craft",
       "address": "54 7th Ave",
       "city": "Brooklyn",
       "state": "New York",
       "postal": "11217",
       "country": "US",
       "phone": "929-337-6130",
       "email": "hello@stringthingstudio.com",
       "web": "www.stringthingstudio.com",
       "hours1": "",
       "featured": ""
    },
    {
       "name": "Seaside Yarn and Fiber",
       "lat": 45.993660,
       "lng": -123.923265,
       "category": "Hobby and Craft",
       "address": "10 N. Holladay Drive, Suite A",
       "city": "Seaside",
       "state": "Oregon",
       "postal": "97138",
       "country": "US",
       "phone": "503-717-5579",
       "email": "seasideyarnandfiber@gmail.com",
       "web": "www.seasideyarnandfiber.com",
       "hours1": "",
       "featured": ""
    },
    {
       "name": "Darn Yarn Needles and Thread",
       "lat": 40.804039,
       "lng": -80.125630,
       "category": "Hobby and Craft",
       "address": "253 Mercer St, Unit D",
       "city": "Harmony",
       "state": "Pennsylvania",
       "postal": "16037",
       "country": "US",
       "phone": "724-473-0983",
       "email": "dynt10@gmail.com",
       "web": "www.darnyarnharmony.com",
       "hours1": "",
       "featured": ""
    },
    {
       "name": "Yarnphoria",
       "lat": 39.944914,
       "lng": -75.159052,
       "category": "Hobby and Craft",
       "address": "1020 Pine St",
       "city": "Philadelphia",
       "state": "Pennsylvania",
       "postal": "19107",
       "country": "US",
       "phone": "215-923-0914",
       "email": "dona@yarnphoriapa.com",
       "web": "www.www.facebook.com/Yarnphoria-126273754192078/",
       "hours1": "",
       "featured": ""
    },
    {
       "name": "The Yarn Club",
       "lat": 36.842250,
       "lng": -76.055069,
       "category": "Hobby and Craft",
       "address": "2448 Virginia Beach Blvd",
       "city": "Virginia Beach",
       "state": "Virginia",
       "postal": "23454",
       "country": "US",
       "phone": "757-486-5648",
       "email": "andrea@yarnclubknits.com",
       "web": "www.yarnclubknits.com",
       "hours1": "",
       "featured": ""
    },
    {
       "name": "Must Love Yarn",
       "lat": 44.420318,
       "lng": -73.212927,
       "category": "Hobby and Craft",
       "address": "2438 Shelburne Rd, Suite #2",
       "city": "Shelburne",
       "state": "Vermont",
       "postal": "05483",
       "country": "US",
       "phone": "802-448-3780",
       "email": "hello@mustloveyarn.com",
       "web": "www.mustloveyarn.com",
       "hours1": "",
       "featured": ""
    },
    {
       "name": "Cabled Fiber and Yarn",
       "lat": 48.119958,
       "lng": -123.434509,
       "category": "Hobby and Craft",
       "address": "125 W 1st St",
       "city": "Port Angeles",
       "state": "Washington",
       "postal": "98362",
       "country": "US",
       "phone": "360-504-2233",
       "email": "info@cabledfiber.com",
       "web": "www.cabledfiber.com",
       "hours1": "",
       "featured": ""
    },
    {
       "name": "Fiber LLC",
       "lat": 48.364924,
       "lng": -120.121677,
       "category": "Hobby and Craft",
       "address": "109 B North, S Glover St",
       "city": "Twisp",
       "state": "Washington",
       "postal": "98856",
       "country": "US",
       "phone": "509-997-1420",
       "email": "twispfiber@gmail.com",
       "web": "www.twispfiber.com",
       "hours1": "",
       "featured": ""
    },
    {
       "name": "Wisconsin Wool Exchange",
       "lat": 44.526165,
       "lng": -89.586266,
       "category": "Hobby and Craft",
       "address": "1009 1st St",
       "city": "Stevens Point",
       "state": "Wisconsin",
       "postal": "54481",
       "country": "US",
       "phone": "715-295-0975",
       "email": "info@wisconsinwoolexchange.com",
       "web": "www.wisconsinwoolexchange.com",
       "hours1": "",
       "featured": ""
    },
    {
       "name": "Kanawha City Yarn Company",
       "lat": 38.318083,
       "lng": -81.574868,
       "category": "Hobby and Craft",
       "address": "5132A MacCorkle Ave SE",
       "city": "Charleston",
       "state": "West Virginia",
       "postal": "25304",
       "country": "US",
       "phone": "304-926-8589",
       "email": "kcyarncompany@gmail.com",
       "web": "www.kcyarncompany.com",
       "hours1": "",
       "featured": ""
    },
    {
       "name": "EWE Fibers",
       "lat": 38.031636,
       "lng": -78.488878,
       "category": "Hobby and Craft",
       "address": "5 Gildersleeve Wood",
       "city": "Charlottesville",
       "state": "Virginia",
       "postal": "22903-3207",
       "country": "US",
       "phone": "434-989-5021",
       "email": "",
       "web": "www.ewefibers.com",
       "hours1": "",
       "featured": ""
    },
    {
       "name": "Hand Knitting",
       "lat": 34.658124,
       "lng": -112.507732,
       "category": "Hobby and Craft",
       "address": "2423 W Post Oak Drive",
       "city": "Prescott",
       "state": "Arizona",
       "postal": "86305",
       "country": "US",
       "phone": "443-824-0257",
       "email": "laurel@Handknitting.com",
       "web": "http://www.handknitting.com",
       "hours1": "",
       "featured": ""
    }
   
 ]